{
"type": "FeatureCollection",
"name": "power_substations",
"crs": { "type": "name", "properties": { "name": "urn:ogc:def:crs:OGC:1.3:CRS84" } },
"features": [
{ "type": "Feature", "properties": { "gid": 54, "__gid": 54, "internal2": 63.0, "location4": null, "transmis6": "WOVWE", "primary 13": null, "secondar14": null, "asset ta16": "Uliwa", "substation": "ULIWA", "transimiss": "66KV WOVWE - ULIWA", "region": "Northern Region", "district": "KARONGA", "ta": "TA Wasambo" }, "geometry": { "type": "Point", "coordinates": [ 34.208017749999115, -10.449341583333307 ] } },
{ "type": "Feature", "properties": { "gid": 47, "__gid": 47, "internal2": 56.0, "location4": "CHIKANGAWA", "transmis6": "CHINTHECHE", "primary 13": "66", "secondar14": "33\/11", "asset ta16": "Chikangawa", "substation": "CHIKANGAWA", "transimiss": "66KV CHINTHECHE - CH", "region": "Northern Region", "district": "MZIMBA", "ta": "SC Kampingo Sibande" }, "geometry": { "type": "Point", "coordinates": [ 33.755952367488135, -11.91561120511861 ] } },
{ "type": "Feature", "properties": { "gid": 48, "__gid": 48, "internal2": 57.0, "location4": "TELEGRAPH HILL", "transmis6": "CHINTHECHE", "primary 13": null, "secondar14": null, "asset ta16": "Telegraph hill", "substation": "TELEGRAPH HILL", "transimiss": "66KV CHINTHECHE - MZ", "region": "Northern Region", "district": "MZIMBA", "ta": "Viphya Ward" }, "geometry": { "type": "Point", "coordinates": [ 34.043162333332951, -11.474723777777774 ] } },
{ "type": "Feature", "properties": { "gid": 49, "__gid": 49, "internal2": 58.0, "location4": null, "transmis6": "CHINTHECHE", "primary 13": null, "secondar14": null, "asset ta16": "Mzuzu", "substation": "MZUZU", "transimiss": "66KV CHINTHECHE - MZ", "region": "Northern Region", "district": "MZIMBA", "ta": "Viphya Ward" }, "geometry": { "type": "Point", "coordinates": [ 34.0230735555552, -11.463163 ] } },
{ "type": "Feature", "properties": { "gid": 50, "__gid": 50, "internal2": 59.0, "location4": null, "transmis6": "CHINTHECHE", "primary 13": null, "secondar14": null, "asset ta16": "Luwinga", "substation": "LUWINGA", "transimiss": "66KV CHINTHECHE - MZ", "region": "Northern Region", "district": "MZIMBA", "ta": "Lupaso Ward" }, "geometry": { "type": "Point", "coordinates": [ 34.000458733333019, -11.393010566666662 ] } },
{ "type": "Feature", "properties": { "gid": 46, "__gid": 46, "internal2": 55.0, "location4": "CHINTHECHE", "transmis6": "NKHOTA-KOTA", "primary 13": null, "secondar14": null, "asset ta16": "CHINTHECHE", "substation": "CHINTHECHE", "transimiss": "132KV NKHOTAKOTA - C", "region": "Northern Region", "district": "NKHATA BAY", "ta": "SC Malanda" }, "geometry": { "type": "Point", "coordinates": [ 34.169997166665993, -11.833274749999987 ] } },
{ "type": "Feature", "properties": { "gid": 53, "__gid": 53, "internal2": 62.0, "location4": "WOVWE", "transmis6": "WOVWE", "primary 13": null, "secondar14": null, "asset ta16": "Wovwe", "substation": "WOVWE", "transimiss": "66KV WOVWE - WOVWE", "region": "Northern Region", "district": "KARONGA", "ta": "TA Wasambo" }, "geometry": { "type": "Point", "coordinates": [ 34.083703525431993, -10.444203073186628 ] } },
{ "type": "Feature", "properties": { "gid": 55, "__gid": 55, "internal2": 64.0, "location4": "KARONGA", "transmis6": "ULIWA", "primary 13": null, "secondar14": null, "asset ta16": "Karonga", "substation": "KARONGA", "transimiss": "66KV ULIWA - KARONGA", "region": "Northern Region", "district": "KARONGA", "ta": "Karonga Town" }, "geometry": { "type": "Point", "coordinates": [ 33.90213033333314, -9.957838583333332 ] } },
{ "type": "Feature", "properties": { "gid": 52, "__gid": 52, "internal2": 61.0, "location4": "Livingstonia", "transmis6": "ULIWA", "primary 13": "66", "secondar14": "11", "asset ta16": "Livingstonia", "substation": "LIVINGSTONIA", "transimiss": "66KV ULIWA - LIVINGS", "region": "Northern Region", "district": "RUMPHI", "ta": "SC Mwalweni" }, "geometry": { "type": "Point", "coordinates": [ 34.098014901473427, -10.599299935211841 ] } },
{ "type": "Feature", "properties": { "gid": 51, "__gid": 51, "internal2": 60.0, "location4": "BWENGU", "transmis6": "CHINTHECHE", "primary 13": "33", "secondar14": "33", "asset ta16": "Bwengu", "substation": "BWENGU", "transimiss": "66KV CHINTHECHE - MZ", "region": "Northern Region", "district": "MZIMBA", "ta": "SC Jaravikuba Munthali" }, "geometry": { "type": "Point", "coordinates": [ 33.917706944444241, -11.062179 ] } },
{ "type": "Feature", "properties": { "gid": 56, "__gid": 56, "internal2": 65.0, "location4": "LIKOMA", "transmis6": null, "primary 13": null, "secondar14": null, "asset ta16": "Likoma", "substation": "LIKOMA", "transimiss": null, "region": "Northern Region", "district": "LIKOMA", "ta": "TA Mkumpha" }, "geometry": { "type": "Point", "coordinates": [ 34.73057949999513, -12.065024916666495 ] } },
{ "type": "Feature", "properties": { "gid": 57, "__gid": 57, "internal2": 66.0, "location4": "CHIZUMULU", "transmis6": null, "primary 13": "11KV", "secondar14": "0.4KV", "asset ta16": "Chizumulu", "substation": "CHIZUMULU", "transimiss": null, "region": "Northern Region", "district": "LIKOMA", "ta": "TA Mkumpha" }, "geometry": { "type": "Point", "coordinates": [ 34.62377524999647, -12.025556666666553 ] } },
{ "type": "Feature", "properties": { "gid": 14, "__gid": 14, "internal2": 22.0, "location4": null, "transmis6": "SALIMA", "primary 13": null, "secondar14": null, "asset ta16": "DWANGWA", "substation": "DWANGWA", "transimiss": "132KV SALIMA - NKHOT", "region": "Central Region", "district": "NKHOTAKOTA", "ta": "TA Kanyenda" }, "geometry": { "type": "Point", "coordinates": [ 34.149479972221641, -12.497596777777765 ] } },
{ "type": "Feature", "properties": { "gid": 35, "__gid": 35, "internal2": 42.0, "location4": "NKHOTAKOTA", "transmis6": "SALIMA", "primary 13": "132", "secondar14": "11", "asset ta16": "NKHOTAKOTA", "substation": "NKHOTAKOTA", "transimiss": "132KV SALIMA - NKHOT", "region": "Central Region", "district": "NKHOTAKOTA", "ta": "Nkhotakota Boma" }, "geometry": { "type": "Point", "coordinates": [ 34.275825333332385, -12.927094722222197 ] } },
{ "type": "Feature", "properties": { "gid": 10, "__gid": 10, "internal2": 18.0, "location4": "MTUNTHAMA", "transmis6": "NKHOTA-KOTA", "primary 13": null, "secondar14": null, "asset ta16": "CHINYAMA", "substation": "CHINYAMA", "transimiss": "66KV NKHOTAKOTA - CH", "region": "Central Region", "district": "KASUNGU", "ta": "TA Wimbe" }, "geometry": { "type": "Point", "coordinates": [ 33.669698444444407, -13.018212694444461 ] } },
{ "type": "Feature", "properties": { "gid": 19, "__gid": 19, "internal2": 28.0, "location4": "KASUNGU", "transmis6": "NKHOTA-KOTA", "primary 13": "33", "secondar14": "11", "asset ta16": "KASUNGU", "substation": "KASUNGU", "transimiss": "66KV NKHOTAKOTA - CH", "region": "Central Region", "district": "KASUNGU", "ta": "Kasungu Boma" }, "geometry": { "type": "Point", "coordinates": [ 33.4842015, -13.03708127777778 ] } },
{ "type": "Feature", "properties": { "gid": 33, "__gid": 33, "internal2": 40.0, "location4": null, "transmis6": "SALIMA", "primary 13": null, "secondar14": null, "asset ta16": "MTUNTHAMA", "substation": "MTUNTHAMA", "transimiss": "132KV SALIMA - NKHOT", "region": "Central Region", "district": "KASUNGU", "ta": "TA Wimbe" }, "geometry": { "type": "Point", "coordinates": [ 33.679058277777742, -13.026120666666673 ] } },
{ "type": "Feature", "properties": { "gid": 60, "__gid": 60, "internal2": 69.0, "location4": "MVERA", "transmis6": "GOLOMOTI", "primary 13": "33", "secondar14": "11", "asset ta16": "MONKEYBAY", "substation": "MVERA", "transimiss": "132KV GOLOMOTI - SAL", "region": "Central Region", "district": "DOWA", "ta": "TA Chiwere" }, "geometry": { "type": "Point", "coordinates": [ 34.123378751661775, -13.719734143464425 ] } },
{ "type": "Feature", "properties": { "gid": 34, "__gid": 34, "internal2": 41.0, "location4": "NANJOKA", "transmis6": "GOLOMOTI", "primary 13": null, "secondar14": null, "asset ta16": "NANJOKA", "substation": "NANJOKA", "transimiss": "132KV GOLOMOTI - SAL", "region": "Central Region", "district": "SALIMA", "ta": "TA Karonga" }, "geometry": { "type": "Point", "coordinates": [ 34.331171731424838, -13.754064723417459 ] } },
{ "type": "Feature", "properties": { "gid": 39, "__gid": 39, "internal2": 46.0, "location4": "SALIMA", "transmis6": "GOLOMOTI", "primary 13": "33", "secondar14": "11", "asset ta16": "MONKEYBAY", "substation": "SALIMA", "transimiss": "132KV GOLOMOTI - SAL", "region": "Central Region", "district": "SALIMA", "ta": "Salima Town" }, "geometry": { "type": "Point", "coordinates": [ 34.455440754697534, -13.781307931821445 ] } },
{ "type": "Feature", "properties": { "gid": 58, "__gid": 58, "internal2": 67.0, "location4": "LILONGWE A", "transmis6": "DEDZA", "primary 13": null, "secondar14": null, "asset ta16": "Lilongwe", "substation": "LILONGWE", "transimiss": "66KV DEDZA - LILONGW", "region": "Central Region", "district": "LILONGWE", "ta": "Area 3" }, "geometry": { "type": "Point", "coordinates": [ 33.771350119795073, -13.991955501012805 ] } },
{ "type": "Feature", "properties": { "gid": 2, "__gid": 2, "internal2": 11.0, "location4": "AREA 47", "transmis6": "LILONGWE AREA 48", "primary 13": "33KV", "secondar14": "11KV", "asset ta16": "AREA 47", "substation": "AREA 47", "transimiss": "66KV AREA 48 - LILON", "region": "Central Region", "district": "LILONGWE", "ta": "Area 9" }, "geometry": { "type": "Point", "coordinates": [ 33.740349777777737, -13.972598944444458 ] } },
{ "type": "Feature", "properties": { "gid": 3, "__gid": 3, "internal2": 12.0, "location4": null, "transmis6": "LILONGWE AREA 48", "primary 13": null, "secondar14": null, "asset ta16": "AREA 48", "substation": "AREA 48", "transimiss": "66KV AREA 48 - LILON", "region": "Central Region", "district": "LILONGWE", "ta": "Area 47" }, "geometry": { "type": "Point", "coordinates": [ 33.75991849360944, -13.942435255217008 ] } },
{ "type": "Feature", "properties": { "gid": 6, "__gid": 6, "internal2": 14.0, "location4": null, "transmis6": "DEDZA", "primary 13": null, "secondar14": null, "asset ta16": "BARRACKS", "substation": "BARRACKS", "transimiss": "66KV LILONGWE B - LI", "region": "Central Region", "district": "LILONGWE", "ta": "Area 35" }, "geometry": { "type": "Point", "coordinates": [ 33.815276291666592, -13.969836125000011 ] } },
{ "type": "Feature", "properties": { "gid": 7, "__gid": 7, "internal2": 15.0, "location4": null, "transmis6": "MLANGENI", "primary 13": null, "secondar14": null, "asset ta16": "BUNDA", "substation": "BUNDA", "transimiss": "66KV LILONGWE C - TS", "region": "Central Region", "district": "LILONGWE", "ta": "TA Kalumba" }, "geometry": { "type": "Point", "coordinates": [ 33.802446958333263, -14.06137675 ] } },
{ "type": "Feature", "properties": { "gid": 11, "__gid": 11, "internal2": 19.0, "location4": "CHITIPI", "transmis6": "LILONGWE AREA 48", "primary 13": "33", "secondar14": "11", "asset ta16": "CHITIPI", "substation": "CHITIPI", "transimiss": "66KV AREA 48 - LILON", "region": "Central Region", "district": "LILONGWE", "ta": "TA Malili" }, "geometry": { "type": "Point", "coordinates": [ 33.665936527777752, -13.996685138888884 ] } },
{ "type": "Feature", "properties": { "gid": 16, "__gid": 16, "internal2": 25.0, "location4": "KANENGO", "transmis6": "GOLOMOTI", "primary 13": "66", "secondar14": "33", "asset ta16": "KANENGO", "substation": "KANENGO", "transimiss": "132KV GOLOMOTI-LILON", "region": "Central Region", "district": "LILONGWE", "ta": "Area 29" }, "geometry": { "type": "Point", "coordinates": [ 33.790990131236384, -13.896888661279853 ] } },
{ "type": "Feature", "properties": { "gid": 20, "__gid": 20, "internal2": 29.0, "location4": "KCH", "transmis6": "DEDZA", "primary 13": "33", "secondar14": "11", "asset ta16": "KCH", "substation": "KCH", "transimiss": "66KV DEDZA - LILONGW", "region": "Central Region", "district": "LILONGWE", "ta": "Area 33" }, "geometry": { "type": "Point", "coordinates": [ 33.780149565503308, -13.975816140896363 ] } },
{ "type": "Feature", "properties": { "gid": 26, "__gid": 26, "internal2": 34.0, "location4": "MALDECO", "transmis6": "GOLOMOTI", "primary 13": "33", "secondar14": "11", "asset ta16": "MALDECO", "substation": "MALDECO", "transimiss": "66KV GOLOMOTI - MONK", "region": "Southern Region", "district": "MANGOCHI", "ta": "TA Mponda" }, "geometry": { "type": "Point", "coordinates": [ 35.145340680674174, -14.337163725041233 ] } },
{ "type": "Feature", "properties": { "gid": 27, "__gid": 27, "internal2": 35.0, "location4": "MANGOCHI", "transmis6": "GOLOMOTI", "primary 13": "33", "secondar14": "11", "asset ta16": "MANGOCHI", "substation": "MANGOCHI", "transimiss": "66KV GOLOMOTI - MONK", "region": "Southern Region", "district": "MANGOCHI", "ta": "Mangochi Town" }, "geometry": { "type": "Point", "coordinates": [ 35.256342384603307, -14.482124891925441 ] } },
{ "type": "Feature", "properties": { "gid": 31, "__gid": 31, "internal2": 39.0, "location4": "MONKEYBAY", "transmis6": "GOLOMOTI", "primary 13": "66", "secondar14": "33", "asset ta16": "MONKEYBAY", "substation": "MONKEYBAY", "transimiss": "66KV GOLOMOTI - MONK", "region": "Southern Region", "district": "MANGOCHI", "ta": "TA Nankumba" }, "geometry": { "type": "Point", "coordinates": [ 34.942691703534095, -14.172498503043263 ] } },
{ "type": "Feature", "properties": { "gid": 59, "__gid": 59, "internal2": 68.0, "location4": "DEDZA", "transmis6": "MLANGENI", "primary 13": null, "secondar14": null, "asset ta16": "Dedza", "substation": "DEDZA", "transimiss": "66KV MLANGENI - DEDZ", "region": "Central Region", "district": "DEDZA", "ta": "Dedza Boma" }, "geometry": { "type": "Point", "coordinates": [ 34.300964686353204, -14.382850001938776 ] } },
{ "type": "Feature", "properties": { "gid": 30, "__gid": 30, "internal2": 38.0, "location4": "MLANGENI SUBSTATION", "transmis6": "NTCHEU", "primary 13": "66", "secondar14": "33", "asset ta16": "MLANGENI", "substation": "MLANGENI", "transimiss": "66KV NTCHEU - MLANGE", "region": "Central Region", "district": "NTCHEU", "ta": "TA Njolomole" }, "geometry": { "type": "Point", "coordinates": [ 34.539257783802974, -14.680381084998192 ] } },
{ "type": "Feature", "properties": { "gid": 37, "__gid": 37, "internal2": 44.0, "location4": "NTCHEU", "transmis6": "CHINGENI", "primary 13": "66", "secondar14": "11", "asset ta16": "NTCHEU", "substation": "NTCHEU", "transimiss": "66KV CHINGENI - NTCH", "region": "Central Region", "district": "NTCHEU", "ta": "Ntcheu Boma" }, "geometry": { "type": "Point", "coordinates": [ 34.620242106057965, -14.801406363636247 ] } },
{ "type": "Feature", "properties": { "gid": 5, "__gid": 5, "internal2": 13.0, "location4": "BALAKA", "transmis6": "CHINGENI", "primary 13": "66", "secondar14": "11", "asset ta16": "BALAKA", "substation": "BALAKA", "transimiss": "66KV CHINGENI - LIWO", "region": "Southern Region", "district": "BALAKA", "ta": "Balaka Town" }, "geometry": { "type": "Point", "coordinates": [ 34.951083223166087, -14.989992321842287 ] } },
{ "type": "Feature", "properties": { "gid": 25, "__gid": 25, "internal2": 33.0, "location4": "LIWONDE", "transmis6": "CHINGENI", "primary 13": "66", "secondar14": "33", "asset ta16": "LIWONDE", "substation": "LIWONDE", "transimiss": "66KV CHINGENI - LIWO", "region": "Southern Region", "district": "BALAKA", "ta": "TA Nsamala" }, "geometry": { "type": "Point", "coordinates": [ 35.18958636829727, -15.046943289948102 ] } },
{ "type": "Feature", "properties": { "gid": 8, "__gid": 8, "internal2": 16.0, "location4": "CHANGALUME", "transmis6": "MAPANGA", "primary 13": "66", "secondar14": "33", "asset ta16": "CHANGALUME", "substation": "CHANGALUME", "transimiss": "66KV MAPANGA - ZOMBA", "region": "Southern Region", "district": "ZOMBA", "ta": "TA Chikowi" }, "geometry": { "type": "Point", "coordinates": [ 35.265679236315208, -15.457877481818842 ] } },
{ "type": "Feature", "properties": { "gid": 45, "__gid": 45, "internal2": 51.0, "location4": "ZOMBA", "transmis6": "MAPANGA", "primary 13": "33", "secondar14": "11", "asset ta16": "ZOMBA", "substation": "ZOMBA", "transimiss": "66KV MAPANGA - ZOMBA", "region": "Southern Region", "district": "ZOMBA", "ta": "Masongola Ward" }, "geometry": { "type": "Point", "coordinates": [ 35.32606007713165, -15.375983017525197 ] } },
{ "type": "Feature", "properties": { "gid": 1, "__gid": 1, "internal2": 1.0, "location4": "CHICHIRI", "transmis6": "NKULA A", "primary 13": "66", "secondar14": "11", "asset ta16": "CHC", "substation": "CHICHIRI", "transimiss": "66KV NKULA A - BLANT", "region": "Southern Region", "district": "BLANTYRE", "ta": "Blantyre East Ward" }, "geometry": { "type": "Point", "coordinates": [ 35.024754884703853, -15.792141030290734 ] } },
{ "type": "Feature", "properties": { "gid": 4, "__gid": 4, "internal2": 122.0, "location4": "NKULA B", "transmis6": "NKULA B", "primary 13": "66", "secondar14": "11", "asset ta16": "NKULA", "substation": "NKULA B", "transimiss": "66KV NKULA B - NKULA", "region": "Southern Region", "district": "BLANTYRE", "ta": "TA Kunthembwe" }, "geometry": { "type": "Point", "coordinates": [ 34.819360561992845, -15.527802483300718 ] } },
{ "type": "Feature", "properties": { "gid": 9, "__gid": 9, "internal2": 17.0, "location4": "CHIGUMULA", "transmis6": "BLANTYRE WEST", "primary 13": "33", "secondar14": "11", "asset ta16": "CHIGUMULA", "substation": "CHIGUMULA", "transimiss": "66KV BT-WEST-CHIGUMU", "region": "Southern Region", "district": "BLANTYRE", "ta": "Chigumula Ward" }, "geometry": { "type": "Point", "coordinates": [ 35.056980417895119, -15.868602518103133 ] } },
{ "type": "Feature", "properties": { "gid": 12, "__gid": 12, "internal2": 2.0, "location4": "CHILEKA", "transmis6": "NKULA B", "primary 13": "33", "secondar14": "11", "asset ta16": "CLK", "substation": "CHILEKA", "transimiss": "66KV NKULA B - MAPAN", "region": "Southern Region", "district": "BLANTYRE", "ta": "TA Kuntaja" }, "geometry": { "type": "Point", "coordinates": [ 34.986242097469507, -15.685199050640406 ] } },
{ "type": "Feature", "properties": { "gid": 13, "__gid": 13, "internal2": 21.0, "location4": "MAKATA INDUSTRIAL AREA", "transmis6": "NKULA A", "primary 13": "33", "secondar14": "11", "asset ta16": "DAVID WHITEHEAD", "substation": "DAVID WHITEHEAD", "transimiss": "66KV NKULA A - BLANT", "region": "Southern Region", "district": "BLANTYRE", "ta": "Nyambadwe Ward" }, "geometry": { "type": "Point", "coordinates": [ 35.032177639706724, -15.789092409446864 ] } },
{ "type": "Feature", "properties": { "gid": 21, "__gid": 21, "internal2": 3.0, "location4": "BWELELA", "transmis6": "BLANTYRE WEST", "primary 13": "33", "secondar14": "11", "asset ta16": "MCH", "substation": "MICHIRU", "transimiss": "132KV BT WEST - KAPI", "region": "Southern Region", "district": "BLANTYRE", "ta": "Likhubula Ward" }, "geometry": { "type": "Point", "coordinates": [ 34.995951946875024, -15.764957572648814 ] } },
{ "type": "Feature", "properties": { "gid": 22, "__gid": 22, "internal2": 30.0, "location4": "KWACHA", "transmis6": "BLANTYRE WEST", "primary 13": "33", "secondar14": "11", "asset ta16": "KWACHA", "substation": "KWACHA", "transimiss": "132KV BT WEST - KAPI", "region": "Southern Region", "district": "BLANTYRE", "ta": "Soche West Ward" }, "geometry": { "type": "Point", "coordinates": [ 35.031741649535981, -15.825941233792948 ] } },
{ "type": "Feature", "properties": { "gid": 23, "__gid": 23, "internal2": 31.0, "location4": "LIMBE", "transmis6": "NKULA B", "primary 13": "33", "secondar14": "11", "asset ta16": "LIMBE A", "substation": "LIMBE A", "transimiss": "66KV NKULA B - MAPAN", "region": "Southern Region", "district": "BLANTYRE", "ta": "Limbe Central Ward" }, "geometry": { "type": "Point", "coordinates": [ 35.057858808576157, -15.813128256028703 ] } },
{ "type": "Feature", "properties": { "gid": 24, "__gid": 24, "internal2": 32.0, "location4": "LIMBE", "transmis6": "NKULA B", "primary 13": "33", "secondar14": "11", "asset ta16": "LIMBE B", "substation": "LIMBE B", "transimiss": "66KV NKULA B - MAPAN", "region": "Southern Region", "district": "BLANTYRE", "ta": "Chichiri Ward" }, "geometry": { "type": "Point", "coordinates": [ 35.062459934620776, -15.807146923783494 ] } },
{ "type": "Feature", "properties": { "gid": 28, "__gid": 28, "internal2": 36.0, "location4": "MAPANGA", "transmis6": "NKULA B", "primary 13": "66", "secondar14": "33", "asset ta16": "MAPANGA", "substation": "MAPANGA", "transimiss": "66KV NKULA B - MAPAN", "region": "Southern Region", "district": "BLANTYRE", "ta": "Mapanga Ward" }, "geometry": { "type": "Point", "coordinates": [ 35.099353252027285, -15.754167804013846 ] } },
{ "type": "Feature", "properties": { "gid": 32, "__gid": 32, "internal2": 4.0, "location4": "CHIRIMBA", "transmis6": "NKULA A", "primary 13": "33", "secondar14": "11", "asset ta16": "CHM", "substation": "CHIRIMBA", "transimiss": "66KV NKULA A - BLANT", "region": "Southern Region", "district": "BLANTYRE", "ta": "Michiru Ward" }, "geometry": { "type": "Point", "coordinates": [ 35.02861580886686, -15.741428617848015 ] } },
{ "type": "Feature", "properties": { "gid": 38, "__gid": 38, "internal2": 45.0, "location4": "QUEENS", "transmis6": "NKULA A", "primary 13": "11", "secondar14": "11", "asset ta16": "QUEENS", "substation": "QUEENS", "transimiss": "66KV NKULA A - BLANT", "region": "Southern Region", "district": "BLANTYRE", "ta": "Blantyre East Ward" }, "geometry": { "type": "Point", "coordinates": [ 35.021689121470978, -15.802773613429022 ] } },
{ "type": "Feature", "properties": { "gid": 40, "__gid": 40, "internal2": 47.0, "location4": "TEDZANI", "transmis6": "TEDZANI III", "primary 13": "11", "secondar14": "11", "asset ta16": "TEDZANI", "substation": "TEDZANI", "transimiss": "66KV TEDZANI - TEDZA", "region": "Southern Region", "district": "BLANTYRE", "ta": "TA Kunthembwe" }, "geometry": { "type": "Point", "coordinates": [ 34.778245893861438, -15.558171596733962 ] } },
{ "type": "Feature", "properties": { "gid": 43, "__gid": 43, "internal2": 5.0, "location4": "BLANTYRE", "transmis6": "NKULA A", "primary 13": "33", "secondar14": "11", "asset ta16": "CST", "substation": "CUSTOMS", "transimiss": "66KV NKULA A - BLANT", "region": "Southern Region", "district": "BLANTYRE", "ta": "Blantyre Central Ward" }, "geometry": { "type": "Point", "coordinates": [ 35.010107581420414, -15.785283663387116 ] } },
{ "type": "Feature", "properties": { "gid": 61, "__gid": 61, "internal2": 7.0, "location4": null, "transmis6": "BLANTYRE WEST", "primary 13": null, "secondar14": null, "asset ta16": "BTW", "substation": "BLANTYRE WEST", "transimiss": "132KV BT WEST - KAPI", "region": "Southern Region", "district": "BLANTYRE", "ta": "Nancholi Ward" }, "geometry": { "type": "Point", "coordinates": [ 34.994105551242413, -15.836063818938973 ] } },
{ "type": "Feature", "properties": { "gid": 63, "__gid": 63, "internal2": 8.0, "location4": "BLANTYRE MAIN", "transmis6": "TEDZANI I & II", "primary 13": "11", "secondar14": "11", "asset ta16": "BTM", "substation": "BLANTYRE MAIN", "transimiss": "66KV TEDZANI - BLANT", "region": "Southern Region", "district": "BLANTYRE", "ta": "Blantyre Central Ward" }, "geometry": { "type": "Point", "coordinates": [ 35.009555717467137, -15.788408527881867 ] } },
{ "type": "Feature", "properties": { "gid": 15, "__gid": 15, "internal2": 24.0, "location4": "MULANJE", "transmis6": "MAPANGA", "primary 13": "66", "secondar14": "33", "asset ta16": "FUNDIS", "substation": "FUNDIS", "transimiss": "66KV MAPANGA - FUNDI", "region": "Southern Region", "district": "MULANJE", "ta": "TA Chikumbu" }, "geometry": { "type": "Point", "coordinates": [ 35.410788555430742, -15.983836925872808 ] } },
{ "type": "Feature", "properties": { "gid": 17, "__gid": 17, "internal2": 26.0, "location4": "KAPICHIRA", "transmis6": "KAPICHIRA", "primary 13": "66", "secondar14": "33", "asset ta16": "KAPICHIRA", "substation": "KAPICHIRA", "transimiss": "66KV KAPICHIRA - KAP", "region": "Southern Region", "district": "CHIKWAWA", "ta": "TA Kasisi" }, "geometry": { "type": "Point", "coordinates": [ 34.752629129826445, -15.900131972952108 ] } },
{ "type": "Feature", "properties": { "gid": 18, "__gid": 18, "internal2": 27.0, "location4": "KASINTHULA", "transmis6": "KAPICHIRA", "primary 13": "33", "secondar14": "11", "asset ta16": "KASINTHULA", "substation": "KASINTHULA", "transimiss": "132KV KAPICHIRA - NC", "region": "Southern Region", "district": "CHIKWAWA", "ta": "TA Katunga" }, "geometry": { "type": "Point", "coordinates": [ 34.818325252395574, -16.055960229908791 ] } },
{ "type": "Feature", "properties": { "gid": 29, "__gid": 29, "internal2": 37.0, "location4": "NCHALO", "transmis6": "KAPICHIRA", "primary 13": "33", "secondar14": "11", "asset ta16": "MLAMBE", "substation": "MLAMBE", "transimiss": "132KV KAPICHIRA - NC", "region": "Southern Region", "district": "CHIKWAWA", "ta": "TA Lundu" }, "geometry": { "type": "Point", "coordinates": [ 34.876860114600198, -16.213000129432988 ] } },
{ "type": "Feature", "properties": { "gid": 36, "__gid": 36, "internal2": 43.0, "location4": "NKULA A", "transmis6": "NKULA A", "primary 13": "11", "secondar14": "33", "asset ta16": "NKULA", "substation": "NKULA A", "transimiss": "66KV NKULA A - NKULA", "region": "Southern Region", "district": "NENO", "ta": "TA Symon" }, "geometry": { "type": "Point", "coordinates": [ 34.819695426543191, -15.526145352563535 ] } },
{ "type": "Feature", "properties": { "gid": 41, "__gid": 41, "internal2": 48.0, "location4": "NUMBER  ONE", "transmis6": "BLANTYRE WEST", "primary 13": "33", "secondar14": "11", "asset ta16": "THYOLO A", "substation": "THYOLO A", "transimiss": "66KV BT-WEST-CHIGUMU", "region": "Southern Region", "district": "THYOLO", "ta": "TA Nchilamwela" }, "geometry": { "type": "Point", "coordinates": [ 35.133247715598358, -16.065585330324708 ] } },
{ "type": "Feature", "properties": { "gid": 42, "__gid": 42, "internal2": 49.0, "location4": "MWATHUNGA", "transmis6": "BLANTYRE WEST", "primary 13": "33", "secondar14": "11", "asset ta16": "THYOLO B", "substation": "THYOLO B", "transimiss": "66KV BT-WEST-CHIGUMU", "region": "Southern Region", "district": "THYOLO", "ta": "TA Bvumbwe" }, "geometry": { "type": "Point", "coordinates": [ 35.087465691089157, -15.965396017918286 ] } },
{ "type": "Feature", "properties": { "gid": 44, "__gid": 44, "internal2": 50.0, "location4": "THYOLO", "transmis6": "BLANTYRE WEST", "primary 13": "33", "secondar14": "11", "asset ta16": "THYOLO C", "substation": "THYOLO C", "transimiss": "66KV BT-WEST-CHIGUMU", "region": "Southern Region", "district": "THYOLO", "ta": "SC Kwethemule" }, "geometry": { "type": "Point", "coordinates": [ 35.099918503199454, -16.206239801230076 ] } },
{ "type": "Feature", "properties": { "gid": 62, "__gid": 62, "internal2": 72.0, "location4": "GOLIATI", "transmis6": "NKULA B", "primary 13": "33", "secondar14": "11", "asset ta16": "MUST", "substation": "MUST", "transimiss": "66KV NKULA B - MAPAN", "region": "Southern Region", "district": "THYOLO", "ta": "TA Chimaliro" }, "geometry": { "type": "Point", "coordinates": [ 35.219623968001422, -15.903628098150548 ] } }
]
}
